,City,Lat,Lng,Max Temp,Humidity,Cloudiness,Wind Speed,Country,Date
0,umm lajj,25.0213,37.2685,78.22,73,0,5.77,SA,1619305551
1,vardo,70.3705,31.1107,34.88,76,100,22.15,NO,1619305389
2,suzun,53.7841,82.3116,32.52,82,15,3.38,RU,1619305551
3,mar del plata,-38.0023,-57.5575,59.0,72,40,6.91,AR,1619305538
4,sioux lookout,50.1001,-91.917,39.2,28,40,11.5,CA,1619305552
5,san patricio,28.017,-97.5169,91.99,19,20,21.85,US,1619305552
6,pervomayskiy,53.2485,40.2871,35.01,83,88,20.83,RU,1619305553
7,esperance,-33.8667,121.9,55.4,88,50,17.27,AU,1619305553
8,avarua,-21.2078,-159.775,82.4,69,75,14.97,CK,1619305553
9,bambous virieux,-20.3428,57.7575,78.01,88,75,17.27,MU,1619305554
10,jamestown,42.097,-79.2353,55.4,38,90,11.5,US,1619305554
11,rikitea,-23.1203,-134.9692,78.55,74,100,13.94,PF,1619305554
12,connersville,39.6412,-85.1411,53.01,85,100,3.22,US,1619305555
13,seoul,37.5683,126.9778,59.0,76,0,3.44,KR,1619305519
14,chokurdakh,70.6333,147.9167,5.67,81,5,5.35,RU,1619305555
15,port elizabeth,-33.918,25.5701,53.6,100,75,3.44,ZA,1619305555
16,bluff,-46.6,168.3333,48.0,88,95,8.01,NZ,1619305536
17,albany,42.6001,-73.9662,64.4,29,75,3.44,US,1619305443
18,katsuura,35.1333,140.3,61.0,63,0,5.75,JP,1619305556
19,galveston,29.3669,-94.9669,86.0,48,1,14.97,US,1619305556
20,severo-kurilsk,50.6789,156.125,34.72,98,100,6.02,RU,1619304980
21,troitskoye,52.9821,84.6757,31.84,93,99,4.45,RU,1619305556
22,pochutla,15.7432,-96.4661,89.01,58,40,14.97,MX,1619305557
23,dikson,73.5069,80.5464,1.98,99,59,7.45,RU,1619305534
24,gubkinskiy,64.434,76.5026,32.88,90,100,7.72,RU,1619305557
25,busselton,-33.65,115.3333,50.0,91,0,1.61,AU,1619305558
26,tromso,69.6496,18.957,30.2,64,40,5.75,NO,1619305558
27,yaring,6.8662,101.3689,79.05,81,100,10.31,TH,1619305558
28,hermanus,-34.4187,19.2345,62.01,82,91,7.0,ZA,1619305559
29,paamiut,61.994,-49.6678,38.93,79,100,3.71,GL,1619304984
30,aguililla,18.7333,-102.7333,91.09,21,100,2.75,MX,1619305559
31,hobart,-42.8794,147.3294,54.0,66,75,10.36,AU,1619305324
32,barrow,71.2906,-156.7887,30.2,80,1,5.75,US,1619305559
33,cape town,-33.9258,18.4232,61.0,88,0,4.61,ZA,1619305285
34,tiarei,-17.5333,-149.3333,84.2,70,75,9.22,PF,1619305560
35,dingle,10.9995,122.6711,79.25,78,100,1.21,PH,1619305560
36,hilo,19.7297,-155.09,73.4,83,90,6.91,US,1619305309
37,axim,4.8699,-2.2405,81.05,84,82,7.36,GH,1619305561
38,marondera,-18.1853,31.5519,55.98,82,88,4.23,ZW,1619305561
39,punta arenas,-53.15,-70.9167,46.4,66,0,14.97,CL,1619305561
40,khatanga,71.9667,102.5,30.83,95,100,16.08,RU,1619305562
41,qaanaaq,77.484,-69.3632,27.68,69,94,7.36,GL,1619305562
42,longyearbyen,78.2186,15.6401,23.0,80,75,4.61,SJ,1619305562
43,mount isa,-20.7333,139.5,75.2,50,6,13.8,AU,1619305563
44,bredasdorp,-34.5322,20.0403,48.2,93,80,2.3,ZA,1619305563
45,praya,14.9215,-23.5087,69.8,78,40,14.97,CV,1619305564
46,indiaroba,-11.5192,-37.5117,75.61,87,80,2.13,BR,1619305564
47,nadym,65.5333,72.5167,31.84,87,100,5.46,RU,1619305564
48,lebu,-37.6167,-73.65,54.23,80,0,15.12,CL,1619305565
49,adrar,20.5022,-10.0711,81.0,11,35,10.04,MR,1619305337
50,tual,-5.6667,132.75,84.87,65,100,14.58,ID,1619305566
51,arraial do cabo,-22.9661,-42.0278,75.2,83,40,2.3,BR,1619305284
52,vadso,70.0744,29.7487,32.0,93,75,14.97,NO,1619305566
53,tasiilaq,65.6145,-37.6368,39.2,75,75,5.75,GL,1619305567
54,kiruna,67.8557,20.2251,24.8,63,90,11.5,SE,1619305567
55,kaitangata,-46.2817,169.8464,46.69,91,61,10.76,NZ,1619305567
56,puerto ayora,-0.7393,-90.3518,80.6,78,40,13.8,EC,1619305535
57,ushuaia,-54.8,-68.3,50.0,57,40,9.22,AR,1619305536
58,talcahuano,-36.7167,-73.1167,60.8,72,0,11.5,CL,1619304915
59,novobirilyussy,56.9514,90.6661,31.41,98,100,3.09,RU,1619305568
60,bethanien,-26.502,17.1583,70.9,36,38,6.53,NA,1619305568
61,carnarvon,-24.8667,113.6333,60.8,72,0,6.91,AU,1619305569
62,broome,42.2506,-75.833,59.0,29,1,9.22,US,1619305569
63,laguna,38.421,-121.4238,69.01,37,40,10.36,US,1619305569
64,los llanos de aridane,28.6585,-17.9182,69.8,46,75,9.22,ES,1619305334
65,mataura,-46.1927,168.8643,48.0,88,92,8.01,NZ,1619305570
66,atuona,-9.8,-139.0333,80.67,72,10,14.65,PF,1619305570
67,kapaa,22.0752,-159.319,80.6,61,40,17.27,US,1619305570
68,andenes,69.3143,16.1194,32.0,80,90,8.88,NO,1619305389
69,constitucion,-35.3333,-72.4167,57.58,72,2,10.65,CL,1619305571
70,kyzyl,51.7,94.45,33.33,72,100,6.17,RU,1619305571
71,chuy,-33.6971,-53.4616,65.37,93,100,6.93,UY,1619305571
72,kingsburg,36.5138,-119.554,75.99,27,1,7.99,US,1619305572
73,pitanga,-24.7572,-51.7614,57.79,87,65,3.33,BR,1619305572
74,makakilo city,21.3469,-158.0858,84.2,45,75,10.36,US,1619305572
75,aklavik,68.2191,-135.0107,42.8,45,20,9.22,CA,1619305573
76,ouallam,14.3188,2.0866,87.82,6,0,6.8,NE,1619305573
77,kutum,14.2,24.6667,78.93,16,93,9.86,SD,1619304880
78,oneonta,42.4529,-75.0638,52.02,67,100,1.81,US,1619305573
79,saint-philippe,-21.3585,55.7679,77.0,78,90,23.02,RE,1619305574
80,surt,31.2089,16.5887,61.84,78,4,17.83,LY,1619305574
81,banda aceh,5.5577,95.3222,79.47,72,100,9.17,ID,1619305567
82,yellowknife,62.456,-114.3525,19.99,45,75,12.66,CA,1619305541
83,saskylakh,71.9167,114.0833,30.65,95,99,8.93,RU,1619305574
84,sorland,67.667,12.6934,36.73,61,84,22.41,NO,1619305575
85,new norfolk,-42.7826,147.0587,54.0,71,91,3.0,AU,1619305543
86,cabinda,-5.55,12.2,78.66,86,97,3.24,AO,1619305575
87,lasa,46.6166,10.7002,51.01,65,0,3.44,IT,1619305575
88,souillac,-20.5167,57.5167,77.0,88,75,17.27,MU,1619305576
89,husavik,66.0449,-17.3389,44.6,81,0,3.44,IS,1619305576
90,agirish,61.9247,63.0231,41.56,92,100,3.47,RU,1619305576
91,prince rupert,54.3161,-130.3201,55.4,62,1,4.61,CA,1619305405
92,saint george,37.1041,-113.5841,81.0,10,1,11.5,US,1619305577
93,egvekinot,66.3167,-179.1667,27.3,96,94,5.32,RU,1619305577
94,kachiry,53.0675,76.1036,39.76,49,100,7.83,KZ,1619305577
95,tungor,53.3808,142.9564,28.2,73,71,10.04,RU,1619305578
96,svobodnyy,51.4,128.1333,37.87,30,0,12.28,RU,1619305578
97,klaksvik,62.2266,-6.589,42.8,81,20,5.37,FO,1619305578
98,vaini,-21.2,-175.2,82.4,78,40,5.75,TO,1619305534
99,saint anthony,45.0205,-93.218,50.0,32,40,11.5,US,1619305579
100,pangnirtung,66.1451,-65.7125,32.31,84,7,4.32,CA,1619305579
101,pevek,69.7008,170.3133,24.96,91,100,7.31,RU,1619305579
102,auburn,47.3073,-122.2284,48.99,87,90,12.66,US,1619305362
103,aktau,43.65,51.2,53.6,58,0,6.71,KZ,1619305580
104,la ronge,55.1001,-105.2842,33.8,34,100,4.61,CA,1619305580
105,safaga,26.7292,33.9365,77.0,25,0,11.5,EG,1619305581
106,tuktoyaktuk,69.4541,-133.0374,24.8,86,20,8.05,CA,1619305395
107,east london,-33.0153,27.9116,65.34,82,66,4.59,ZA,1619305581
108,castro,-24.7911,-50.0119,60.96,73,69,0.74,BR,1619305581
109,acapulco,16.8634,-99.8901,86.0,62,40,6.91,MX,1619305373
110,bengkulu,-3.8004,102.2655,74.73,88,70,3.89,ID,1619305582
111,isangel,-19.55,169.2667,82.4,78,75,5.75,VU,1619305582
112,komyshnya,50.1859,33.684,33.46,78,9,8.48,UA,1619305582
113,mount gambier,-37.8333,140.7667,51.8,100,90,4.61,AU,1619305583
114,narsaq,60.9167,-46.05,53.6,32,75,28.77,GL,1619305583
115,codrington,-38.2667,141.9667,54.91,84,94,5.08,AU,1619305583
116,ullapool,57.8987,-5.1604,39.99,90,97,4.0,GB,1619305459
117,semnan,35.5729,53.3971,68.29,47,100,5.55,IR,1619305584
118,sur,22.5667,59.5289,84.34,38,1,11.25,OM,1619305584
119,vanderhoof,54.0166,-124.0198,50.25,26,18,9.86,CA,1619305584
120,amahai,-3.3333,128.9167,84.99,92,99,1.88,ID,1619305585
121,mahebourg,-20.4081,57.7,77.0,88,75,17.27,MU,1619305585
122,hithadhoo,-0.6,73.0833,82.8,69,25,8.01,MV,1619305548
123,coahuayana,18.7333,-103.6833,80.6,39,1,6.98,MX,1619305585
124,abu samrah,35.3029,37.1841,73.56,36,77,4.41,SY,1619305586
125,camacha,33.0833,-16.3333,62.6,77,20,14.97,PT,1619305586
126,biak,-0.9131,122.8766,78.15,77,91,4.79,ID,1619305586
127,itoman,26.1247,127.6694,69.8,78,40,13.8,JP,1619305587
128,rolla,37.9514,-91.7713,61.0,67,1,6.91,US,1619305587
129,thompson,55.7435,-97.8558,28.4,50,75,6.91,CA,1619305400
130,plettenberg bay,-34.0527,23.3716,61.59,90,72,1.97,ZA,1619305587
131,poronaysk,49.2167,143.1167,33.91,74,100,8.88,RU,1619305588
132,torbay,47.6666,-52.7314,43.0,70,40,13.8,CA,1619305588
133,gravelbourg,49.8834,-106.5512,46.4,18,20,6.91,CA,1619305588
134,mporokoso,-9.3727,30.125,62.91,86,100,6.15,ZM,1619305588
135,georgetown,5.4112,100.3354,78.8,89,20,5.75,MY,1619305548
136,leshukonskoye,64.8989,45.7622,42.75,76,38,6.33,RU,1619305589
137,iqaluit,63.7506,-68.5145,32.0,86,75,4.61,CA,1619305589
138,nanortalik,60.1432,-45.2371,41.86,74,100,15.12,GL,1619305590
139,ciudad guayana,8.3533,-62.6528,80.01,80,77,7.0,VE,1619305590
140,mamallapuram,12.6264,80.1722,82.4,83,40,3.44,IN,1619305590
141,cabo san lucas,22.8909,-109.9124,82.99,25,1,12.66,MX,1619305396
142,matamba,-8.9833,33.9667,53.22,95,58,5.68,TZ,1619305591
143,dubbo,-32.25,148.6167,53.6,62,0,6.91,AU,1619305591
144,bubaque,11.2833,-15.8333,78.69,65,6,20.07,GW,1619305591
145,kruisfontein,-34.0033,24.7314,59.0,93,85,5.1,ZA,1619305592
146,tiksi,71.6872,128.8694,31.78,92,100,11.01,RU,1619305569
147,butaritari,3.0707,172.7902,82.63,76,35,10.45,KI,1619305592
148,bandarbeyla,9.4942,50.8122,82.58,77,67,6.71,SO,1619305594
149,samarai,-10.6167,150.6667,84.07,73,41,15.55,PG,1619305595
150,sitka,57.0531,-135.33,62.6,19,20,8.05,US,1619305595
151,nizhniy kuranakh,58.8353,125.4869,33.3,93,100,6.02,RU,1619305596
152,rantepao,-2.9701,119.8978,67.84,94,68,1.39,ID,1619305596
153,trujillo,-8.116,-79.03,64.4,88,20,11.5,PE,1619305514
154,mwinilunga,-11.7358,24.4293,61.14,89,93,2.26,ZM,1619305596
155,san angelo,31.4638,-100.437,84.2,14,1,8.05,US,1619305299
156,hasaki,35.7333,140.8333,61.0,77,75,5.75,JP,1619305597
157,weinfelden,47.5667,9.1,50.0,46,50,3.44,CH,1619305597
158,saint-joseph,-21.3667,55.6167,77.0,78,90,23.02,RE,1619305597
159,sheboygan,43.7333,-87.9334,53.6,82,90,3.44,US,1619305598
160,tokur,53.1333,132.9,25.05,53,9,3.98,RU,1619305598
161,caravelas,-17.7125,-39.2481,74.75,84,27,4.79,BR,1619305598
162,grand gaube,-20.0064,57.6608,78.01,82,100,10.0,MU,1619305599
163,inverell,-29.7833,151.1167,57.99,73,0,3.15,AU,1619305599
164,krasnoselkup,65.7,82.4667,30.56,95,100,8.79,RU,1619305599
165,beringovskiy,63.05,179.3167,32.0,92,100,4.88,RU,1619305600
166,port alfred,-33.5906,26.891,65.95,86,75,7.18,ZA,1619305600
167,laukaa,58.7372,29.8453,30.49,97,37,4.65,RU,1619305600
168,taltal,-25.4,-70.4833,62.33,81,18,4.9,CL,1619305601
169,pareora,-44.4871,171.2132,57.0,97,80,11.39,NZ,1619305601
170,tahta,26.7693,31.5021,71.6,18,0,4.61,EG,1619305601
171,ketchikan,55.3422,-131.6461,57.81,39,8,5.23,US,1619305602
172,inuvik,68.3499,-133.7218,42.8,45,47,10.36,CA,1619305602
173,honningsvag,70.9821,25.9704,32.94,80,100,20.27,NO,1619305602
174,presidente dutra,-5.29,-44.49,75.22,93,91,0.56,BR,1619305603
175,sorong,-0.8833,131.25,79.79,85,67,6.91,ID,1619305603
176,ternate,0.8,127.4,82.56,76,55,6.08,ID,1619305603
177,ilulissat,69.2167,-51.1,46.4,49,11,19.57,GL,1619305603
178,bamboo,18.3922,-77.2643,80.6,83,20,4.61,JM,1619305604
179,inta,66.0317,60.1659,36.5,80,77,7.36,RU,1619305604
180,bad krozingen,47.9167,7.7,53.6,40,71,9.22,DE,1619305604
181,lagoa,39.05,-27.9833,58.89,84,46,25.84,PT,1619305387
182,figeac,44.75,1.9167,51.8,58,0,5.75,FR,1619305605
183,saldanha,-33.0117,17.9442,59.0,82,96,6.53,ZA,1619305605
184,atlantic city,39.3643,-74.4229,57.2,44,20,9.22,US,1619305544
185,conakry,9.538,-13.6773,80.6,65,0,9.22,GN,1619305606
186,nikolskoye,59.7035,30.7861,37.0,75,20,4.47,RU,1619305606
187,kodiak,57.79,-152.4072,44.6,81,90,9.22,US,1619305549
188,fairbanks,64.8378,-147.7164,60.8,17,1,3.44,US,1619305606
189,puerto del rosario,28.5004,-13.8627,69.8,64,0,8.05,ES,1619305607
190,ancud,-41.8697,-73.8203,57.0,87,90,6.91,CL,1619305607
191,alice springs,-23.7,133.8833,57.2,54,0,1.14,AU,1619305556
192,bambanglipuro,-7.95,110.2833,75.16,84,39,3.2,ID,1619305607
193,flinders,-34.5833,150.8552,61.0,80,0,1.01,AU,1619305608
194,belmonte,-15.8631,-38.8828,78.8,78,20,8.05,BR,1619305608
195,illela,13.7292,5.2975,83.61,46,82,10.51,NG,1619305608
196,roma,43.2128,-75.4557,60.8,36,1,6.91,US,1619305609
197,xichang,27.8964,102.2634,59.38,83,9,1.01,CN,1619305609
198,daru,-9.0763,143.2092,78.46,85,100,4.76,PG,1619305609
199,port macquarie,-31.4333,152.9167,64.0,74,0,1.01,AU,1619305609
200,victoria,22.2855,114.1577,78.01,86,86,1.01,HK,1619305610
201,sao filipe,14.8961,-24.4956,72.21,74,55,9.84,CV,1619305610
202,chimbote,-9.0853,-78.5783,67.05,85,11,9.8,PE,1619305611
203,kichmengskiy gorodok,59.9816,45.7854,43.59,89,99,8.28,RU,1619305611
204,cherskiy,68.75,161.3,19.51,89,95,13.71,RU,1619305611
205,ginir,7.1333,40.7,57.25,90,84,3.62,ET,1619305611
206,arcos de la frontera,36.7508,-5.8106,62.01,82,0,4.61,ES,1619305612
207,ribeira grande,38.5167,-28.7,59.77,73,96,22.59,PT,1619305534
208,awjilah,29.1081,21.2869,62.73,75,0,20.94,LY,1619305612
209,saint-georges,12.0564,-61.7485,82.4,69,20,14.97,GD,1619305613
210,portree,57.4129,-6.1942,43.0,66,85,2.1,GB,1619305613
211,carupano,10.6678,-63.2585,77.76,85,68,14.34,VE,1619305613
212,sao raimundo nonato,-9.0153,-42.6994,78.13,63,50,1.23,BR,1619305614
213,hovd,48.0056,91.6419,23.88,25,30,8.79,MN,1619305579
214,vila,42.0304,-8.1588,55.0,89,100,2.73,PT,1619305614
215,atherton,53.5237,-2.4935,46.99,71,1,1.99,GB,1619305614
216,solnechnogorsk,56.1833,36.9833,35.6,93,90,13.42,RU,1619305615
217,mezen,65.8522,44.24,43.84,74,71,7.29,RU,1619305615
218,honiara,-9.4333,159.95,85.28,69,67,2.57,SB,1619305615
219,wuwei,37.9281,102.6414,47.1,62,100,2.75,CN,1619305616
220,bathsheba,13.2167,-59.5167,78.8,61,40,18.41,BB,1619305616
221,terney,45.0503,136.6092,40.84,45,13,14.58,RU,1619305616
222,yerbogachen,61.2767,108.0108,32.16,91,100,2.26,RU,1619305616
223,vuktyl,63.8567,57.3094,42.84,78,100,9.24,RU,1619305617
224,kalmunai,7.4167,81.8167,77.9,82,24,2.28,LK,1619305617
225,rio grande,-32.035,-52.0986,66.0,93,100,5.68,BR,1619305617
226,brae,60.3964,-1.353,41.0,70,88,6.91,GB,1619305618
227,lata,40.1629,-8.3327,62.01,90,72,3.47,PT,1619305618
228,ozinki,51.1786,49.6769,42.13,83,43,13.04,RU,1619305618
229,kabare,-2.4683,28.8242,61.43,96,99,1.07,CD,1619305619
230,lavrentiya,65.5833,-171.0,32.45,91,88,1.57,RU,1619305619
231,acajutla,13.5928,-89.8275,86.0,54,20,6.91,SV,1619305617
232,veraval,20.9,70.3667,80.44,76,100,15.01,IN,1619305619
233,khromtau,50.2503,58.4347,40.95,90,32,10.13,KZ,1619305620
234,padang,-0.9492,100.3543,73.4,94,20,2.3,ID,1619305574
235,vostok,46.4856,135.8833,31.98,40,16,10.71,RU,1619305620
236,conde,-7.2597,-34.9075,77.0,94,75,3.44,BR,1619305620
237,vao,-22.6667,167.4833,75.69,68,100,12.73,NC,1619305621
238,leningradskiy,69.3833,178.4167,30.0,83,100,4.5,RU,1619305621
239,upernavik,72.7868,-56.1549,28.99,86,10,6.22,GL,1619305621
240,qaqortoq,60.7167,-46.0333,53.6,32,75,28.77,GL,1619305622
241,jacareacanga,-6.2222,-57.7528,79.61,82,100,2.08,BR,1619305392
242,maniitsoq,65.4167,-52.9,37.67,75,42,3.33,GL,1619305622
243,altayskoye,51.9533,85.3325,32.59,84,100,3.13,RU,1619305622
244,mahon,39.8885,4.2658,57.2,94,40,5.75,ES,1619305623
245,kashan,33.9831,51.4364,69.98,47,85,2.91,IR,1619305623
246,abu dhabi,24.4667,54.3667,80.6,47,0,4.61,AE,1619305511
247,at-bashi,41.1702,75.8106,39.22,46,74,0.51,KG,1619305624
248,port blair,11.6667,92.75,81.05,72,9,2.91,IN,1619305624
249,tiznit,29.5833,-9.5,56.8,67,1,2.17,MA,1619305624
250,borovskoy,53.8,64.15,43.68,51,99,10.54,KZ,1619305625
251,nohar,29.1833,74.7667,74.14,21,0,3.91,IN,1619305625
252,atar,20.5169,-13.0499,81.61,13,1,4.92,MR,1619305337
253,samaro,25.2815,69.3965,84.65,36,1,5.26,PK,1619305625
254,hami,42.8,93.45,42.66,33,98,23.02,CN,1619305626
255,mersing,2.4312,103.8405,75.2,94,100,5.75,MY,1619305626
256,kijang,35.2442,129.2139,59.0,77,75,13.8,KR,1619305394
257,shihezi,44.3,86.0333,38.05,34,0,3.36,CN,1619305626
258,geraldton,-28.7667,114.6,57.2,82,49,9.22,AU,1619305627
259,half moon bay,37.4636,-122.4286,63.0,82,90,8.05,US,1619305627
260,okhtyrka,50.3104,34.8988,35.33,75,20,9.75,UA,1619305627
261,tomatlan,19.9333,-105.25,89.13,30,90,9.91,MX,1619305628
262,melilli,37.1796,15.1255,54.0,93,0,2.3,IT,1619305628
263,rockland,41.1668,-74.0496,64.0,37,100,1.01,US,1619305628
264,haines junction,60.7522,-137.5108,53.6,24,39,6.91,CA,1619305629
265,chicama,-7.8447,-79.1469,64.4,88,20,11.5,PE,1619305629
266,coihaique,-45.5752,-72.0662,48.2,87,40,4.79,CL,1619305629
267,cayenne,4.9333,-52.3333,78.8,89,75,5.75,GF,1619305480
268,kununurra,-15.7667,128.7333,71.6,60,31,4.61,AU,1619305595
269,nova varos,43.4606,19.8114,34.0,75,0,2.3,RS,1619305630
270,nenjiang,49.1833,125.2167,43.27,43,2,10.33,CN,1619305630
271,hammerfest,70.6634,23.6821,30.2,64,90,6.91,NO,1619305630
272,jamame,0.0722,42.7506,79.65,78,55,6.2,SO,1619305631
273,soyo,-6.1349,12.3689,78.62,84,87,2.08,AO,1619305456
274,kodinsk,58.6881,99.1844,33.42,99,100,2.13,RU,1619305631
275,kavaratti,10.5669,72.642,83.57,75,24,12.19,IN,1619305632
276,fare,-16.7,-151.0167,79.75,70,100,9.08,PF,1619305632
277,san luis,-33.295,-66.3356,57.81,61,1,11.97,AR,1619305469
278,olafsvik,64.8945,-23.7142,42.8,90,99,19.62,IS,1619305632
279,lompoc,34.6391,-120.4579,59.0,63,94,12.66,US,1619305448
280,ponta do sol,32.6667,-17.1,57.99,83,36,1.99,PT,1619305537
281,zaltan,32.947,11.8665,59.54,82,12,6.85,LY,1619305633
282,saint-pierre,-21.3393,55.4781,77.0,78,90,23.02,RE,1619305633
283,mackenzie,55.2999,-123.1698,44.6,29,1,3.44,CA,1619305634
284,fort nelson,58.8053,-122.7002,46.4,25,75,8.05,CA,1619305634
285,forchheim,49.7175,11.0588,44.01,75,0,2.3,DE,1619305634
286,kupang,-10.1667,123.5833,77.36,82,7,6.87,ID,1619305635
287,puerto gaitan,4.3133,-72.0816,89.2,44,69,4.14,CO,1619305555
288,luderitz,-26.6481,15.1594,63.03,78,30,2.51,NA,1619305635
289,tainan,22.9908,120.2133,75.2,83,75,3.44,TW,1619305636
290,chama,47.1821,8.4636,51.8,62,20,4.61,CH,1619305636
291,nuuk,64.1835,-51.7216,37.4,75,40,12.66,GL,1619305601
292,misratah,32.3754,15.0925,62.37,70,67,14.29,LY,1619305638
293,mehamn,71.0357,27.8492,31.78,76,71,8.72,NO,1619305638
294,provideniya,64.3833,-173.3,39.07,75,100,0.49,RU,1619305638
295,maravilha,-26.7608,-53.1725,66.2,88,40,2.82,BR,1619305345
296,aksarka,66.5606,67.7975,32.4,84,100,6.51,RU,1619305639
297,taiyuan,37.8694,112.5603,51.8,71,100,8.95,CN,1619305639
298,pandan,14.0453,124.1694,79.59,77,89,6.85,PH,1619305639
299,providencia,28.7167,-111.5833,90.0,25,8,11.99,MX,1619305640
300,marsh harbour,26.5412,-77.0636,76.71,78,72,15.21,BS,1619305557
301,baghdad,33.3406,44.4009,75.2,27,0,2.3,IQ,1619305432
302,morant bay,17.8815,-76.4093,82.4,74,20,20.71,JM,1619305640
303,nyimba,-14.5566,30.8149,65.43,76,33,4.18,ZM,1619305641
304,takoradi,4.8845,-1.7554,81.64,82,82,7.63,GH,1619305641
305,manggar,-2.8833,108.2667,80.8,77,25,7.18,ID,1619305641
306,ugoofaaru,5.6667,73.0,83.16,72,39,5.68,MV,1619305642
307,topolevo,48.4994,135.1975,33.8,100,20,13.42,RU,1619305642
308,airai,-8.9266,125.4092,61.47,84,64,3.06,TL,1619305642
309,xining,36.6167,101.7667,40.08,94,100,1.39,CN,1619305429
310,aksay,47.26,39.87,42.01,70,0,4.47,RU,1619305643
311,el alto,-4.2714,-81.2147,75.2,69,0,13.8,PE,1619305591
312,faanui,-16.4833,-151.75,80.31,69,100,9.48,PF,1619305608
313,perehonivka,48.5355,30.5192,38.16,71,6,6.22,UA,1619305643
314,herat,34.5,62.0,59.07,25,60,10.0,AF,1619305644
315,nome,64.5011,-165.4064,39.2,70,1,3.33,US,1619305645
316,yacuiba,-22.038,-63.6797,62.15,96,58,5.23,BO,1619305645
317,panzhihua,26.5851,101.7128,63.18,36,46,2.71,CN,1619305645
318,del rio,29.3627,-100.8968,95.0,9,1,10.36,US,1619305551
319,jasper,37.2001,-94.3502,66.99,48,40,11.5,US,1619305646
320,chiredzi,-21.05,31.6667,64.13,54,0,5.44,ZW,1619305646
321,bethel,41.3712,-73.414,62.6,27,1,11.5,US,1619305646
322,ulladulla,-35.35,150.4667,57.99,71,75,6.91,AU,1619305647
323,daura,11.5538,11.4085,86.67,39,98,16.24,NG,1619305647
324,lazaro cardenas,17.9583,-102.2,83.73,54,93,11.1,MX,1619305647
325,siswa bazar,27.15,83.7667,78.42,24,80,3.42,IN,1619305648
326,langsa,4.4683,97.9683,73.47,94,100,1.57,ID,1619305649
327,tuatapere,-46.1333,167.6833,48.0,88,100,8.01,NZ,1619305650
328,muisne,0.6,-80.0333,84.2,79,40,5.75,EC,1619305650
329,otavi,-19.65,17.3333,60.26,37,4,2.26,NA,1619305650
330,arlit,18.7369,7.3853,89.33,11,33,5.73,NE,1619305651
331,tessalit,20.1986,1.0114,88.92,6,0,6.35,ML,1619305651
332,salinas,36.6777,-121.6555,62.6,48,20,14.97,US,1619305651
333,west melbourne,28.0717,-80.6534,84.0,69,75,9.22,US,1619305652
334,fez,34.0372,-4.9998,62.6,82,0,4.61,MA,1619305596
335,izumo,35.3667,132.7667,55.4,88,75,4.61,JP,1619305652
336,vallenar,-28.5708,-70.7581,63.7,63,0,2.98,CL,1619305652
337,melilla,35.2937,-2.9383,60.8,94,75,10.36,ES,1619305653
338,oyotun,-6.8519,-79.3036,69.8,73,0,26.46,PE,1619305653
339,zhezkazgan,47.8043,67.7144,42.06,37,84,9.62,KZ,1619305653
340,san carlos,9.6612,-68.5827,88.18,45,96,3.02,VE,1619305654
341,yulara,-25.2406,130.9889,60.8,48,15,10.36,AU,1619305624
342,san policarpo,12.1791,125.5072,77.85,87,91,5.03,PH,1619305654
343,vista hermosa,19.5167,-99.2167,82.4,15,40,4.61,MX,1619305654
344,bukachacha,52.9833,116.9167,41.23,34,100,2.06,RU,1619305655
345,emmett,43.8735,-116.4993,63.0,40,96,3.0,US,1619305655
346,zlobin,45.2924,14.6541,55.4,58,0,2.3,HR,1619305655
347,quatre cocos,-20.2078,57.7625,78.01,88,75,17.27,MU,1619305656
348,sokol,59.4617,40.1206,44.6,86,98,11.88,RU,1619305656
349,muros,42.7762,-9.0603,59.0,92,97,6.49,ES,1619305656
350,zemio,5.0314,25.1361,68.61,96,100,5.59,CF,1619305657
351,cidreira,-30.1811,-50.2056,69.96,87,66,9.93,BR,1619305576
352,ponta delgada,37.7333,-25.6667,59.0,82,75,19.57,PT,1619305657
353,akdepe,42.0551,59.3788,57.2,38,0,4.61,TM,1619305657
354,pacific grove,36.6177,-121.9166,62.6,51,75,16.11,US,1619305658
355,opotiki,-38.0833,177.2833,64.0,68,10,3.0,NZ,1619305658
356,gwadar,25.1216,62.3254,80.37,83,24,4.61,PK,1619305658
357,bolpur,23.6667,87.7167,78.48,52,88,3.47,IN,1619305659
358,nalut,30.3333,10.85,60.85,56,0,16.37,LY,1619305659
359,inirida,3.8653,-67.9239,77.25,92,99,1.45,CO,1619305659
360,port lincoln,-34.7333,135.8667,60.44,63,0,1.3,AU,1619305660
361,chapais,49.7834,-74.8492,41.0,75,90,5.75,CA,1619305661
362,naze,28.3667,129.4833,69.8,68,40,18.41,JP,1619305662
363,grand-santi,4.25,-54.3833,73.54,99,100,2.82,GF,1619305663
364,zaysan,47.4667,84.8667,31.3,52,12,7.94,KZ,1619305663
365,seredka,58.1584,28.1858,33.8,86,75,6.71,RU,1619305663
366,sabalgarh,26.25,77.4,75.67,17,23,2.53,IN,1619305664
367,ninh binh,20.2539,105.975,78.91,92,94,7.38,VN,1619305664
368,kahului,20.8947,-156.47,82.4,54,40,21.85,US,1619305664
369,vestmannaeyjar,63.4427,-20.2734,45.77,84,100,20.31,IS,1619305390
370,tarakan,3.3,117.6333,77.0,88,40,2.3,ID,1619305665
371,palmer,42.1584,-72.3287,69.8,18,75,6.91,US,1619305665
372,ganzhou,28.8184,115.4327,61.39,88,100,8.63,CN,1619305665
373,mayumba,-3.432,10.6554,78.73,88,93,4.59,GA,1619305666
374,fortuna,40.5982,-124.1573,61.0,54,1,12.66,US,1619305666
375,wahpeton,46.2652,-96.6059,45.0,29,1,6.91,US,1619305666
376,vrangel,42.7297,133.0839,43.45,54,0,8.08,RU,1619305667
377,chandbali,20.7833,86.7667,77.65,86,4,8.3,IN,1619305667
378,ngunguru,-35.6167,174.5,66.99,69,7,5.01,NZ,1619305667
379,tam ky,15.5667,108.4833,78.8,89,20,2.3,VN,1619305668
380,xiaoyi,34.6178,109.703,53.29,90,100,3.47,CN,1619305668
381,marawi,7.9986,124.2928,77.0,82,35,7.0,PH,1619305668
382,poroshkovo,48.6683,22.7533,43.0,58,99,1.83,UA,1619305669
383,santa fe,-31.6333,-60.7,68.0,75,33,1.01,AR,1619305669
384,dudinka,69.4058,86.1778,16.0,91,99,14.07,RU,1619305670
385,badiraguato,25.3667,-107.5167,91.99,27,1,10.36,MX,1619305670
386,ossora,59.2353,163.0719,31.84,99,100,6.91,RU,1619305670
387,hirara,24.8,125.2833,71.6,78,75,12.66,JP,1619305671
388,praia da vitoria,38.7333,-27.0667,57.2,94,75,27.0,PT,1619305671
389,shitkino,56.3703,98.3543,32.47,93,100,4.52,RU,1619305671
390,camacupa,-12.0167,17.4833,61.38,88,85,1.61,AO,1619305672
391,linxia,35.6003,103.2064,43.57,78,99,0.83,CN,1619305672
392,scarborough,54.2797,-0.4044,42.01,81,3,1.01,GB,1619305539
393,pocone,-16.2567,-56.6228,84.51,46,78,5.55,BR,1619305673
394,sambava,-14.2667,50.1667,74.37,90,49,9.91,MG,1619305673
395,lima,-12.0432,-77.0282,64.99,82,75,14.97,PE,1619305560
396,buta,2.7858,24.73,70.45,94,100,1.9,CD,1619305673
397,kindu,-2.95,25.95,69.67,99,100,0.38,CD,1619305674
398,vaasa,63.096,21.6158,32.0,93,90,19.57,FI,1619305674
399,dicabisagan,17.0818,122.4157,77.29,81,88,6.46,PH,1619305674
400,nenita,12.4917,124.8044,78.46,82,73,0.96,PH,1619305675
401,beyneu,45.3167,55.2,59.85,43,100,2.1,KZ,1619305675
402,moranbah,-22.0016,148.0466,68.4,72,100,16.67,AU,1619305675
403,tucurui,-3.7661,-49.6725,75.92,94,70,3.36,BR,1619305546
404,zhanaozen,43.3,52.8,61.47,31,3,10.25,KZ,1619305676
405,kinablangan,7.6947,126.5503,81.07,71,59,3.0,PH,1619305676
406,laiwu,36.1928,117.6569,53.49,75,100,9.53,CN,1619305676
407,golyshmanovo,56.3979,68.3728,41.16,52,100,10.71,RU,1619305677
408,oistins,13.0667,-59.5333,78.8,61,40,18.41,BB,1619305677
409,nipawin,53.3668,-104.0009,37.4,28,40,9.22,CA,1619305677
410,itapuranga,-15.5622,-49.9486,69.48,70,7,0.81,BR,1619305677
411,nadvoitsy,63.8667,34.3167,35.13,97,100,8.08,RU,1619305678
412,irtyshskiy,58.3333,68.1333,42.08,55,100,8.08,RU,1619305678
413,chifeng,42.2683,118.9636,44.82,57,100,0.85,CN,1619305678
414,tyukhtet,56.5389,89.3011,32.45,99,100,5.01,RU,1619305679
415,brumadinho,-20.1433,-44.1997,77.0,68,0,2.46,BR,1619305679
416,horsham,51.064,-0.3272,43.0,87,0,10.36,GB,1619305679
417,freeport,40.6576,-73.5832,57.99,47,1,13.8,US,1619305586
418,kavieng,-2.5744,150.7967,83.03,76,57,10.2,PG,1619305680
419,gao,16.6362,1.637,86.29,6,1,6.35,ML,1619305680
420,baruun-urt,46.6806,113.2792,42.96,20,99,11.59,MN,1619305680
421,andros town,24.7,-77.7667,79.32,73,24,15.05,BS,1619305596
422,hov,60.6987,10.3519,33.01,79,13,1.01,NO,1619305681
423,westport,41.1415,-73.3579,59.0,54,1,5.75,US,1619305681
424,sharan,54.8167,54.0,41.86,95,100,8.88,RU,1619305682
425,talnakh,69.4865,88.3972,17.44,93,99,11.97,RU,1619305682
426,aswan,24.0934,32.907,81.7,11,0,10.25,EG,1619305682
427,iskateley,67.6803,53.1512,36.95,86,97,9.46,RU,1619305682
428,ola,59.5833,151.2833,21.13,59,100,15.05,RU,1619305683
429,salalah,17.0151,54.0924,82.4,78,40,6.91,OM,1619305683
430,mackay,-21.15,149.2,71.6,88,75,9.22,AU,1619305538
431,byron bay,-28.65,153.6167,64.0,88,52,6.91,AU,1619305684
432,moncton,46.1159,-64.8019,57.2,30,20,13.8,CA,1619305471
433,wiarton,44.7407,-81.1332,59.0,33,75,8.05,CA,1619305684
434,celestun,20.8667,-90.4,83.91,69,61,14.81,MX,1619305685
435,general roca,-39.0333,-67.5833,57.2,77,0,3.96,AR,1619305685
436,hervey bay,-25.2986,152.8535,71.01,75,0,3.0,AU,1619305673
437,urumqi,43.801,87.6005,33.8,60,0,6.71,CN,1619305547
438,shaoguan,24.8,113.5833,66.47,93,100,3.83,CN,1619305685
439,richards bay,-28.783,32.0377,68.99,87,88,10.25,ZA,1619305627
440,fukue,32.6881,128.8419,62.89,76,5,15.43,JP,1619305686
441,columbus,39.9612,-82.9988,51.01,87,90,5.75,US,1619305686
442,porto nacional,-10.7081,-48.4172,75.2,88,40,3.44,BR,1619305686
443,vila franca do campo,37.7167,-25.4333,59.0,82,75,19.57,PT,1619305687
444,petropavlovsk-kamchatskiy,53.0452,158.6483,35.6,100,90,6.71,RU,1619305520
445,kargasok,59.0556,80.8572,36.52,97,100,6.51,RU,1619305687
446,guerrero negro,27.9769,-114.0611,66.15,58,6,18.63,MX,1619305687
447,pavlovsk,50.4578,40.1081,36.95,68,24,12.24,RU,1619305688
448,beira,-19.8436,34.8389,71.56,80,15,8.16,MZ,1619305688
449,thinadhoo,0.5333,72.9333,82.26,70,4,7.09,MV,1619305688
450,krasnovishersk,60.4078,57.082,41.07,86,100,9.06,RU,1619305689
451,northam,51.0333,-4.2167,50.0,63,16,5.01,GB,1619305689
452,markova,48.6758,24.4138,36.34,85,100,5.7,UA,1619305689
453,halifax,44.6453,-63.5724,60.8,29,28,10.36,CA,1619305680
454,ayagoz,47.9714,80.4392,31.66,50,74,8.3,KZ,1619305690
455,chase,50.8165,-119.6857,62.6,23,100,3.44,CA,1619305690
456,fenoarivo,-18.933,47.4354,64.4,82,75,5.75,MG,1619305690
457,tsogni,-2.7942,10.0988,74.91,86,98,1.97,GA,1619305691
458,ahuimanu,21.4447,-157.8378,84.2,65,40,16.11,US,1619305691
459,kulhudhuffushi,6.6221,73.07,82.98,73,34,4.38,MV,1619305691
460,havre-saint-pierre,50.2334,-63.5986,42.8,70,40,18.41,CA,1619305692
461,maues,-3.3836,-57.7186,76.15,93,50,2.44,BR,1619305692
462,linares,-35.85,-71.6,59.23,38,0,4.36,CL,1619305692
463,hengyang,26.8881,112.615,58.3,91,100,6.13,CN,1619305693
464,metro,-5.1131,105.3067,73.56,88,68,5.14,ID,1619305693
465,severnyy,50.677,36.5532,33.8,75,20,11.18,RU,1619305693
466,mayor pablo lagerenza,-19.9309,-60.7718,69.69,94,100,8.46,PY,1619305693
467,tirumullaivasal,11.2333,79.8333,81.63,76,23,5.23,IN,1619305694
468,lorengau,-2.0226,147.2712,82.63,78,88,5.64,PG,1619305694
469,norman wells,65.282,-126.8329,39.2,45,75,10.36,CA,1619305694
470,zhuhai,22.2769,113.5678,77.0,88,40,11.5,CN,1619305695
471,saltpond,5.2091,-1.0606,81.23,83,79,9.1,GH,1619305695
472,bayir,37.2687,28.2167,66.2,55,75,5.75,TR,1619305695
473,nemuro,43.3236,145.575,35.89,93,100,15.32,JP,1619305696
474,juneau,58.3019,-134.4197,60.8,18,20,12.66,US,1619305696
475,kashi,39.4547,75.9797,64.4,12,40,8.95,CN,1619305696
476,anadyr,64.75,177.4833,33.8,86,20,4.47,RU,1619305697
477,lac-megantic,45.5834,-70.8823,64.4,27,20,8.05,CA,1619305399
478,meulaboh,4.1363,96.1285,74.77,87,100,4.09,ID,1619305697
479,barauna,-5.08,-37.6167,78.64,79,92,10.6,BR,1619305697
480,labuhan,-6.8844,112.2051,76.6,85,38,6.55,ID,1619305698
481,coquimbo,-29.9533,-71.3436,59.0,82,0,4.61,CL,1619305698
482,nelson bay,-32.7167,152.15,62.01,72,3,11.5,AU,1619305698
483,maldonado,-34.6667,-54.9167,66.2,82,75,17.27,UY,1619305699
484,mindelo,16.8901,-24.9804,71.6,73,20,23.02,CV,1619305603
485,walvis bay,-22.9575,14.5053,59.0,88,0,5.75,NA,1619305699
486,gbarnga,6.9956,-9.4722,71.67,96,82,5.55,LR,1619305699
487,itapetininga,-23.5917,-48.0531,63.68,76,3,3.2,BR,1619305700
488,sawtell,-30.3833,153.1,62.6,82,0,3.44,AU,1619305700
489,te anau,-45.4167,167.7167,46.47,79,98,9.89,NZ,1619305568
490,namatanai,-3.6667,152.4333,83.46,71,30,7.94,PG,1619305700
491,kalaleh,37.3807,55.4916,58.82,87,100,2.86,IR,1619305701
492,boueni,-12.9025,45.0761,80.6,83,0,6.91,YT,1619305701
493,nizwa,22.9333,57.5333,77.67,24,11,1.59,OM,1619305701
494,tautira,-17.7333,-149.15,84.2,70,75,9.22,PF,1619305702
495,arman,59.7,150.1667,21.24,61,100,12.41,RU,1619305644
496,hofn,64.2539,-15.2082,45.54,90,96,4.07,IS,1619305652
497,shingu,33.7333,135.9833,60.8,67,40,3.44,JP,1619305702
498,sao sebastiao,-23.76,-45.4097,69.94,89,42,1.97,BR,1619305702
499,rawson,-43.3002,-65.1023,58.53,55,12,7.2,AR,1619305703
500,kloulklubed,7.0419,134.2556,86.0,74,75,12.66,PW,1619305703
501,mazamari,-11.3258,-74.5308,72.14,96,27,0.92,PE,1619305703
502,santa maria,-29.6842,-53.8069,64.4,100,90,1.14,BR,1619305416
503,rundu,-17.9333,19.7667,61.39,40,0,4.45,NA,1619305704
504,lokhvytsya,50.3678,33.2602,34.59,76,21,9.01,UA,1619305704
505,iquira,2.6487,-75.6346,72.1,82,72,1.23,CO,1619305704
506,torbat-e jam,35.244,60.6225,64.04,34,78,10.71,IR,1619305705
507,teeli,51.0333,90.2333,22.5,66,69,5.26,RU,1619305705
508,pangkalanbuun,-2.6833,111.6167,74.75,90,85,2.04,ID,1619305705
509,copiapo,-27.3667,-70.3333,59.0,77,20,9.22,CL,1619305706
510,nunoa,-14.48,-70.6411,44.08,54,14,8.28,PE,1619305706
511,kudahuvadhoo,2.6708,72.8944,82.69,68,9,8.12,MV,1619305706
512,nicolas bravo,18.45,-88.9167,84.99,65,1,20.71,MX,1619305707
513,yen bai,21.7,104.8667,78.17,96,100,1.72,VN,1619305707
514,koplik,42.2136,19.4364,39.0,73,32,4.81,AL,1619305707
515,urucui,-7.2294,-44.5561,79.27,80,88,3.83,BR,1619305648
516,shelburne,44.0787,-80.2041,61.0,37,100,7.92,CA,1619305708
517,lluta,-16.0147,-72.0142,62.6,45,0,4.61,PE,1619305708
518,rio gallegos,-51.6226,-69.2181,48.2,66,0,6.91,AR,1619305578
519,sao francisco,-15.9486,-44.8644,76.32,39,1,3.71,BR,1619305708
520,ocampo,21.65,-101.5,86.0,50,100,8.77,MX,1619305709
521,boyabat,41.4689,34.7667,50.49,77,100,4.12,TR,1619305709
522,cheney,47.4874,-117.5758,46.4,81,90,12.66,US,1619305616
523,vila velha,-20.3297,-40.2925,75.2,83,75,1.14,BR,1619305709
524,graciano sanchez,23.9167,-99.2833,96.8,10,75,9.22,MX,1619305710
525,chistogorskiy,53.9835,87.3843,33.12,95,100,4.5,RU,1619305710
526,mayo,38.8876,-76.5119,57.2,54,75,10.36,US,1619305630
527,tilichiki,60.4667,166.1,28.9,97,100,1.7,RU,1619305696
528,broken hill,-31.95,141.4333,50.0,71,0,5.75,AU,1619305711
529,kaeo,-35.1,173.7833,66.99,68,8,8.99,NZ,1619305711
530,komsomolskiy,40.4272,71.7189,55.4,50,25,6.91,UZ,1619305577
531,hambantota,6.1241,81.1185,77.77,87,89,5.35,LK,1619305711
532,ostrovnoy,68.0531,39.5131,34.72,99,100,4.56,RU,1619305599
533,cockburn town,21.4612,-71.1419,80.6,69,40,11.5,TC,1619305712
534,tingo maria,-9.2895,-76.0088,72.55,94,17,1.14,PE,1619305712
535,killybegs,54.6333,-8.45,48.99,61,19,5.01,IE,1619305712
536,galle,6.0367,80.217,79.11,83,84,3.13,LK,1619305713
537,avera,33.194,-82.5271,64.4,88,90,10.36,US,1619305713
538,general pico,-35.6566,-63.7568,55.78,66,1,7.54,AR,1619305699
539,berlevag,70.8578,29.0864,33.89,69,99,13.71,NO,1619305713
540,high rock,26.6208,-78.2833,80.6,74,75,12.66,BS,1619305714
541,clyde river,70.4692,-68.5914,17.6,100,75,10.36,CA,1619305714
542,ballina,-28.8667,153.5667,64.0,88,45,6.91,AU,1619305714
